City_ID,City,Lat,Lng,Max Temp,Humidity,Cloudiness,Wind Speed,Country,Date
0,hamilton,39.1834,-84.5333,63.23,50,0,8.05,US,1682612172
1,adamstown,-25.066,-130.1015,74.32,70,99,4.56,PN,1682612173
2,saipan,15.1355,145.701,81.3,89,40,16.11,MP,1682612174
3,atafu village,-8.5421,-172.5159,83.52,74,84,9.57,TK,1682612176
4,hermanus,-34.4187,19.2345,63.81,78,79,10.16,ZA,1682612177
5,yeed,4.55,43.0333,87.03,53,80,16.26,SO,1682612179
6,talnakh,69.4865,88.3972,13.21,98,100,2.06,RU,1682612181
7,yellowknife,62.456,-114.3525,32.56,100,100,12.66,CA,1682612175
8,limoeiro do norte,-5.1456,-38.0981,80.69,82,92,6.49,BR,1682612183
9,waitangi,-43.9535,-176.5597,50.83,76,78,1.99,NZ,1682612184
10,fort bragg,35.139,-79.006,64.9,87,100,9.22,US,1682612186
11,port-aux-francais,-49.35,70.2167,41.29,67,96,25.26,TF,1682612187
12,west island,-12.1568,96.8225,80.58,89,40,16.11,CC,1682612188
13,holualoa,19.6228,-155.9522,67.84,91,75,5.99,US,1682612189
14,qaqortoq,60.7167,-46.0333,37.08,74,89,7.76,GL,1682612192
15,vorgashor,67.5833,63.95,20.3,89,63,15.79,RU,1682612193
16,santiago de veraguas,8.1,-80.9833,88.29,43,30,3.11,PA,1682612194
17,grytviken,-54.2811,-36.5092,37.76,92,46,9.48,GS,1682612197
18,hanceville,34.0607,-86.7675,60.71,97,100,7.99,US,1682612198
19,dunedin,-45.8742,170.5036,49.8,81,0,1.01,NZ,1682611911
20,whitehorse,60.7161,-135.0538,34.11,60,37,21.0,CA,1682612026
21,bredasdorp,-34.5322,20.0403,62.4,68,99,9.93,ZA,1682612047
22,badger,64.8,-147.5333,34.12,75,75,0.0,US,1682612203
23,spas-klepiki,55.1347,40.1767,58.8,67,77,1.45,RU,1682612204
24,oriximina,-1.7656,-55.8661,80.85,76,100,2.73,BR,1682612205
25,pacific grove,36.6177,-121.9166,72.64,100,100,0.0,US,1682611935
26,morris,40.8334,-74.5329,56.16,74,75,4.61,US,1682612208
27,anadyr,64.75,177.4833,7.3,85,20,15.66,RU,1682612209
28,nogliki,51.8333,143.1667,30.45,98,100,14.61,RU,1682612210
29,vilyuysk,63.7553,121.6247,30.22,88,83,8.93,RU,1682612212
30,jamestown,42.097,-79.2353,55.02,47,0,1.99,US,1682611991
31,ashland,40.8167,-82.2665,56.97,55,69,7.02,US,1682612086
32,blackmans bay,-43.0167,147.3167,55.53,87,23,7.58,AU,1682612215
33,bethel,41.3712,-73.414,52.56,84,100,1.01,US,1682612217
34,lihue,21.9789,-159.3672,65.79,82,0,9.22,US,1682612218
35,kurumkan,54.3,110.3,36.7,62,98,3.62,RU,1682612219
36,albany,42.6001,-73.9662,54.57,69,93,0.69,US,1682611937
37,puerto natales,-51.7236,-72.4875,46.85,76,100,12.66,CL,1682612222
38,olonkinbyen,70.9221,-8.7187,29.98,95,100,22.1,SJ,1682612223
39,swakopmund,-22.6833,14.5333,65.26,71,32,11.21,NA,1682612225
40,shetpe,44.1667,52.1167,72.23,46,22,4.52,KZ,1682612226
41,hami,42.8,93.45,53.1,10,0,13.62,CN,1682612137
42,ribeira grande,38.5167,-28.7,64.8,82,20,20.71,PT,1682612228
43,margaret river,-33.95,115.0667,54.66,72,64,8.77,AU,1682612230
44,nemuro,43.3236,145.575,41.74,63,0,21.32,JP,1682612231
45,ust-nera,64.5667,143.2,14.13,91,100,1.57,RU,1682612232
46,rio grande,-32.035,-52.0986,73.51,61,4,8.3,BR,1682612233
47,paraipaba,-3.4394,-39.1483,81.97,73,100,8.21,BR,1682612235
48,nadi,-17.8,177.4167,80.6,78,40,10.36,FJ,1682612237
49,iqaluit,63.7506,-68.5145,31.73,86,75,16.11,CA,1682612238
50,tazovsky,67.4667,78.7,17.15,93,92,3.49,RU,1682612239
51,edinburgh of the seven seas,-37.0676,-12.3116,63.1,77,97,19.33,SH,1682612241
52,raja,8.4596,25.678,90.84,36,80,2.68,SS,1682612242
53,bocas del toro,9.3333,-82.25,79.83,68,12,6.2,PA,1682612243
54,lompoc,34.6391,-120.4579,51.94,100,100,0.0,US,1682612066
55,lebu,-37.6167,-73.65,62.98,68,52,10.29,CL,1682612246
56,tura,25.5198,90.2201,78.4,38,97,4.21,IN,1682612247
57,mopti,14.6667,-4.0,104.04,7,59,8.05,ML,1682612249
58,puerto ayora,-0.7393,-90.3518,85.96,86,51,8.99,EC,1682612250
59,saint-joseph,-21.3667,55.6167,73.78,79,14,5.75,RE,1682612251
60,alice springs,-23.7,133.8833,62.15,82,40,6.02,AU,1682612253
61,griffith,41.5284,-87.4237,61.3,41,0,11.5,US,1682612254
62,urzhar,47.093,81.6294,56.91,45,19,8.7,KZ,1682612255
63,selfoss,63.9331,-20.9971,37.04,96,100,5.12,IS,1682612257
64,redencao,-4.2258,-38.7306,73.2,98,100,1.16,BR,1682612259
65,mata-utu,-13.2816,-176.1745,82.44,74,100,5.7,WF,1682612260
66,viedma,-40.8135,-62.9967,67.35,39,100,16.33,AR,1682612261
67,port elizabeth,-33.918,25.5701,69.1,81,20,18.41,ZA,1682612262
68,kirensk,57.7853,108.1119,28.9,97,99,3.09,RU,1682612263
69,iskateley,67.6803,53.1512,27.01,87,100,12.46,RU,1682612265
70,as sanad,34.4628,9.264,86.25,21,21,12.91,TN,1682612267
71,invercargill,-46.4,168.35,45.91,97,33,4.27,NZ,1682612268
72,nar'yan-mar,67.6713,53.087,27.07,88,100,12.41,RU,1682612270
73,sao gabriel da cachoeira,-0.1303,-67.0892,87.6,79,0,8.05,BR,1682612271
74,haiku-pauwela,20.9219,-156.3051,70.03,88,40,11.5,US,1682612272
75,la rinconada,37.4873,-5.9826,100.58,21,0,10.36,ES,1682612274
76,tsiombe,-25.3,45.4833,68.95,82,30,6.98,MG,1682612275
77,ovalle,-30.5983,-71.2003,69.98,57,43,5.19,CL,1682612276
78,santa ana,33.7456,-117.8678,67.26,87,100,4.61,US,1682611978
79,happy valley-goose bay,53.3168,-60.3315,46.71,57,40,10.36,CA,1682612278
80,rongelap,11.1635,166.8941,80.42,82,39,19.28,MH,1682612280
81,cidade velha,14.9167,-23.6167,82.87,51,0,9.22,CV,1682612281
82,new plymouth,-39.0667,174.0833,49.32,65,62,7.92,NZ,1682612152
83,uturoa,-16.7333,-151.4333,81.73,79,18,10.8,PF,1682612283
84,ganye,8.4333,12.0667,96.82,24,97,10.02,NG,1682612285
85,marsassoum,12.8275,-15.9806,95.09,12,100,6.93,SN,1682612286
86,nabire,-3.3667,135.4833,78.12,90,100,2.06,ID,1682612288
87,port mathurin,-19.6833,63.4167,79.27,80,42,15.19,MU,1682612289
88,praia da vitoria,38.7333,-27.0667,70.05,64,40,23.38,PT,1682612213
89,marka,1.7159,44.7717,83.66,74,100,14.34,SO,1682612291
90,klyuchi,52.2667,79.1667,62.58,44,100,8.37,RU,1682612293
91,kerikeri,-35.2268,173.9474,52.92,93,100,3.42,NZ,1682612294
92,longyearbyen,78.2186,15.6401,28.24,69,0,13.8,SJ,1682612296
93,san antonio de pale,-1.4014,5.6325,82.98,70,98,1.68,GQ,1682612297
94,howard springs,-12.497,131.047,80.51,95,74,5.01,AU,1682612298
95,toliara,-23.35,43.6667,74.21,73,0,16.31,MG,1682612300
96,stanley,54.868,-1.6985,51.71,68,20,6.91,GB,1682612301
97,vyalikaya byerastavitsa,53.196,24.0166,47.82,60,97,11.99,BY,1682612302
98,flin flon,54.7682,-101.865,33.78,92,100,9.93,CA,1682612303
99,sovetskiy,61.3614,63.5842,35.83,94,100,9.08,RU,1682612304
100,dudinka,69.4058,86.1778,13.62,99,90,2.17,RU,1682612306
101,zaxo,37.1482,42.7001,70.2,42,92,9.48,IQ,1682612307
102,san patricio,28.017,-97.5169,71.55,83,85,13.98,US,1682612308
103,otjimbingwe,-22.35,16.1333,86.43,29,8,15.55,NA,1682612309
104,altai,46.3722,96.2583,19.96,47,4,4.65,MN,1682612311
105,el bauga,18.262,33.9081,97.95,10,98,12.03,SD,1682612312
106,kaohsiung,22.6163,120.3133,80.55,70,75,4.61,TW,1682612096
107,zaragoza,41.6561,-0.8773,88.02,24,0,5.75,ES,1682612315
108,camayenne,9.535,-13.6878,87.89,58,0,16.11,GN,1682612316
109,noumea,-22.2763,166.4572,75.99,99,100,13.62,NC,1682612317
110,ma'rib,15.4591,45.3253,86.63,26,53,5.17,YE,1682612319
111,tamandare,-8.7597,-35.1047,83.07,73,78,7.36,BR,1682612320
112,sur,22.5667,59.5289,80.8,65,8,6.71,OM,1682612321
113,constantia,44.1833,28.65,54.7,54,100,19.24,RO,1682612322
114,piwniczna-zdroj,49.4406,20.7142,48.96,10,98,4.92,PL,1682612324
115,college,64.8569,-147.8028,34.2,72,75,0.0,US,1682612325
116,sao joao da barra,-21.6403,-41.0511,87.89,63,6,5.14,BR,1682612326
117,melekeok village,7.4957,134.6367,81.16,89,75,4.61,PW,1682612327
118,bonthe,7.5264,-12.505,87.67,61,13,11.7,SL,1682612329
119,gulariya,28.2333,81.3333,85.17,20,18,3.67,NP,1682612330
120,leh,34.1667,77.5833,34.99,63,93,6.04,IN,1682612331
121,kingston,17.997,-76.7936,85.24,77,58,8.99,JM,1682612117
122,georgetown,5.4112,100.3354,80.53,94,20,0.0,MY,1682612112
123,wewak,-3.5534,143.6268,79.7,84,100,2.35,PG,1682612335
124,minas de marcona,-15.2119,-75.1103,70.43,64,12,12.3,PE,1682612336
125,afaahiti,-17.75,-149.2833,75.07,82,63,11.68,PF,1682612337
126,udachny,66.4167,112.4,10.69,96,54,3.78,RU,1682612339
127,salinas,36.6777,-121.6555,77.56,64,0,8.05,US,1682612340
128,beyneu,45.3167,55.2,74.17,40,100,1.81,KZ,1682612341
129,mrkonjic grad,44.4158,17.0861,53.67,57,40,5.17,BA,1682612342
130,petropavlovsk-kamchatsky,53.0452,158.6483,34.39,51,0,6.71,RU,1682612344
131,vadso,70.0744,29.7487,43.68,75,0,16.11,NO,1682612345
132,bilibino,68.0546,166.4372,-0.27,89,11,4.99,RU,1682612346
133,tiksi,71.6872,128.8694,7.41,86,5,4.05,RU,1682612348
134,shinkafi,13.0753,6.5105,97.9,21,92,7.61,NG,1682612349
135,arar,30.9753,41.0381,86.02,7,20,6.91,SA,1682612350
136,tokmok,42.8417,75.3016,60.21,43,1,6.15,KG,1682612352
137,hanzhong,33.0728,107.0303,62.67,57,100,4.88,CN,1682612353
138,thompson,55.7435,-97.8558,37.56,56,0,11.5,CA,1682612354
139,ilulissat,69.2167,-51.1,29.95,72,46,5.23,GL,1682612355
140,nova sintra,14.8667,-24.7167,68.52,75,10,15.17,CV,1682612356
141,grand falls-windsor,48.9332,-55.6649,48.51,61,44,1.01,CA,1682612358
142,vicencia,-7.6569,-35.3267,91.15,44,59,9.01,BR,1682612359
143,mil'kovo,55.6078,37.7956,66.4,63,91,5.97,RU,1682612360
144,boca chica,18.4537,-69.6111,87.37,70,40,6.91,DO,1682612362
145,zemio,5.0314,25.1361,75.67,74,96,3.06,CF,1682612363
146,susanville,40.4163,-120.653,67.12,38,0,1.99,US,1682612365
147,kristiansund,63.1115,7.732,41.65,81,75,19.57,NO,1682612367
148,la passe,45.5549,-0.8967,73.63,80,100,8.93,FR,1682612368
149,port augusta,-32.5,137.7667,61.41,68,19,3.96,AU,1682612370
150,la huerta,19.4667,-104.65,73.89,25,25,3.0,MX,1682612371
151,ji'an,27.1172,114.9793,70.47,77,99,4.14,CN,1682612372
152,clearfield,41.1253,-78.75,58.75,40,0,3.44,US,1682612374
153,tazacorte,28.629,-17.9293,75.15,69,75,5.75,ES,1682612375
154,kodiak,57.79,-152.4072,36.91,87,100,6.91,US,1682612376
155,mhamid,29.82,-5.72,99.79,6,17,4.7,MA,1682612378
156,akrehamn,59.2667,5.1833,46.22,61,20,12.66,NO,1682612379
157,papatowai,-46.5619,169.4708,48.16,93,1,3.49,NZ,1682612380
158,kailua-kona,19.6406,-155.9956,71.56,91,75,5.99,US,1682612382
159,silvassa,20.2667,73.0167,80.74,67,31,4.88,IN,1682612383
160,lata,40.1629,-8.3327,86.92,43,84,9.53,PT,1682612384
161,ciudad lazaro cardenas,17.9583,-102.2,82.83,55,66,3.91,MX,1682612259
162,hampton bays,40.869,-72.5176,53.92,83,100,3.44,US,1682612387
163,la'ie,21.6477,-157.9253,73.36,91,43,7.99,US,1682612388
164,arawa,-6.2132,155.5367,77.04,90,17,1.92,PG,1682612389
165,serres,41.0856,23.5497,59.41,53,100,2.75,GR,1682612391
166,la cruz,23.9167,-106.9,78.71,42,0,2.77,MX,1682612392
167,ponta delgada,37.7333,-25.6667,66.92,82,20,14.97,PT,1682612393
168,fort mcmurray,56.7268,-111.381,41.94,70,80,3.29,CA,1682612102
169,ushuaia,-54.8,-68.3,42.46,70,75,5.75,AR,1682612315
170,namibe,-15.1961,12.1522,79.34,67,83,9.73,AO,1682612397
171,reggane,26.7158,0.1714,103.14,5,0,13.82,DZ,1682612399
172,krutinka,56.0055,71.5113,59.74,41,100,12.5,RU,1682612400
173,kapa'a,22.0752,-159.319,66.52,82,0,9.22,US,1682612403
174,moratuwa,6.773,79.8816,80.85,82,89,4.16,LK,1682612404
175,tofol,5.3248,163.0078,81.81,80,100,13.35,FM,1682612405
176,tete,-16.1564,33.5867,78.89,69,40,4.61,MZ,1682612407
177,yuzhno-kurilsk,44.0306,145.8556,41.94,63,14,11.81,RU,1682612408
178,trogir,43.5125,16.2517,64.45,52,20,11.5,HR,1682612409
179,makoua,0.0069,15.6333,85.62,63,78,0.43,CG,1682612411
180,khorixas,-20.3667,14.9667,89.06,24,8,16.58,NA,1682612412
181,petropavlovka,50.6114,105.3196,27.52,74,35,4.9,RU,1682612413
182,wailua homesteads,22.0669,-159.378,65.19,82,0,9.22,US,1682612415
183,crane,31.3974,-102.3501,60.48,39,0,9.95,US,1682612416
184,colonia,50.9333,6.95,63.97,33,0,5.75,DE,1682612405
185,tolanaro,-25.0319,46.9987,70.99,82,16,4.83,MG,1682612418
186,bamyan,34.75,67.25,48.94,26,0,2.8,AF,1682612419
187,mount pearl,47.5166,-52.7813,42.85,82,100,13.8,CA,1682612421
188,dawson creek,55.7666,-120.2362,46.04,36,0,9.22,CA,1682612243
189,avarua,-21.2078,-159.775,75.25,78,75,5.75,CK,1682612423
190,villa yapacani,-17.4,-63.8333,83.21,63,45,2.55,BO,1682612424
191,psachna,38.5833,23.6333,62.24,65,7,7.56,GR,1682612426
192,ola,59.5833,151.2833,28.15,78,6,10.47,RU,1682612427
193,baruun-urt,46.6806,113.2792,35.37,32,20,20.8,MN,1682612429
194,gantang,26.92,119.6333,59.22,86,93,2.48,CN,1682612431
195,queenstown,-31.8976,26.8753,67.39,43,2,5.48,ZA,1682612432
196,kilinochchi,9.3961,80.3982,81.59,83,100,6.85,LK,1682612434
197,tanda,26.55,82.65,88.09,27,66,4.9,IN,1682612436
198,midvagur,62.0511,-7.1939,41.83,56,75,10.36,FO,1682612437
199,enewetak,11.3474,162.3373,80.47,78,88,20.74,MH,1682612438
200,coracora,-15.0333,-73.7833,62.47,49,19,4.81,PE,1682612439
201,dailekh,28.8333,81.6667,68.25,40,86,5.95,NP,1682612440
202,dali,25.7,100.1833,56.71,57,0,5.82,CN,1682612442
203,mugia,43.1041,-9.2179,71.17,75,100,8.86,ES,1682612444
204,roma,43.2128,-75.4557,57.38,46,0,4.0,US,1682612403
205,priargunsk,50.3691,119.1012,40.1,57,72,3.74,RU,1682612447
206,copala,16.65,-98.9833,84.02,57,14,4.54,MX,1682612448
207,choma,-16.8065,26.9531,68.34,49,43,5.77,ZM,1682612449
208,opelousas,30.5335,-92.0815,69.69,94,75,8.05,US,1682612450
209,hadibu,12.65,54.0333,84.43,69,25,2.86,YE,1682612451
210,dickinson,29.4608,-95.0513,75.02,81,75,6.91,US,1682612188
211,ancud,-41.8697,-73.8203,50.18,94,100,4.25,CL,1682612454
212,port saint john's,-31.6229,29.5448,73.87,88,86,16.37,ZA,1682612455
213,hilo,19.7297,-155.09,75.27,86,75,3.44,US,1682612456
214,labytnangi,66.6572,66.4183,25.45,94,100,11.92,RU,1682612457
215,shar,49.5886,81.0453,59.47,44,79,8.59,KZ,1682612459
216,belozersk,60.0326,37.7957,48.63,77,100,8.66,RU,1682612460
217,businga,3.3333,20.8833,86.79,54,25,2.44,CD,1682612461
218,cill airne,52.05,-9.5167,57.25,82,75,10.36,IE,1682612462
219,aswan,24.0934,32.907,90.07,9,0,13.06,EG,1682612464
220,saldanha,-33.0117,17.9442,60.85,79,10,6.42,ZA,1682612465
221,luderitz,-26.6481,15.1594,65.34,64,1,13.33,NA,1682612466
222,malegaon,20.55,74.5333,88.05,33,58,7.16,IN,1682612467
223,kish,26.5578,54.0194,75.47,83,0,9.22,IR,1682612469
224,howrah,22.5892,88.3103,75.2,88,75,8.05,IN,1682612374
225,carora,10.1755,-70.0827,89.38,43,2,0.6,VE,1682612471
226,klaksvik,62.2266,-6.589,41.92,76,99,17.07,FO,1682612472
227,new norfolk,-42.7826,147.0587,56.7,68,58,1.54,AU,1682612474
228,bengkulu,-3.8004,102.2655,77.86,90,100,3.33,ID,1682612475
229,cacheu,12.2706,-16.1658,95.09,14,84,2.77,GW,1682612476
230,aasiaat,68.7098,-52.8699,30.25,87,96,8.14,GL,1682612477
231,illizi,26.4833,8.4667,98.4,9,13,13.82,DZ,1682612479
232,hawaiian paradise park,19.5933,-154.9731,71.04,89,75,3.44,US,1682612376
233,hammerfest,70.6634,23.6821,46.85,61,0,8.05,NO,1682612481
234,santa catarina juquila,16.2333,-97.3,68.7,23,31,4.74,MX,1682612483
235,sisimiut,66.9395,-53.6735,34.2,83,20,6.76,GL,1682612484
236,codrington,-38.2667,141.9667,59.77,84,14,12.8,AU,1682612485
237,media luna,20.1419,-77.435,83.84,61,41,2.21,CU,1682612487
238,yeppoon,-23.1333,150.7333,65.98,85,47,14.52,AU,1682612488
239,katsuren-haebaru,26.3369,127.8719,71.62,73,100,3.44,JP,1682612490
240,manta,-0.95,-80.7333,87.58,66,40,5.75,EC,1682612492
241,frydlant,50.9214,15.0797,53.28,45,95,5.01,CZ,1682612493
242,silver city,32.7701,-108.2803,65.62,22,0,3.0,US,1682612398
243,shushtar,32.0455,48.8567,89.53,12,1,5.57,IR,1682612495
244,sosnovo-ozerskoye,52.5249,111.5418,34.9,84,100,7.25,RU,1682612497
245,praya,14.9215,-23.5087,82.94,51,0,9.22,CV,1682612443
246,salekhard,66.53,66.6019,25.5,95,100,12.28,RU,1682612499
247,makungu,-8.7333,35.2833,62.01,93,100,3.83,TZ,1682612500
248,zaozersk,69.4005,32.4476,34.36,92,62,13.27,RU,1682612502
249,coahuayana de hidalgo,18.7,-103.6583,84.74,37,97,4.47,MX,1682612503
250,nizhnyaya salda,58.0776,60.7202,54.61,74,35,7.72,RU,1682612504
251,myanaung,18.2833,95.3167,87.08,44,0,4.14,MM,1682612505
252,cabo san lucas,22.8909,-109.9124,80.62,75,0,5.75,MX,1682612380
253,ebon,4.582,168.6964,83.44,76,100,14.18,MH,1682612508
254,zhanibek,49.4167,46.85,65.32,44,4,6.91,KZ,1682612509
255,pangody,65.85,74.4859,17.1,94,45,9.64,RU,1682612510
256,jacmel,18.2342,-72.5347,87.64,71,85,6.53,HT,1682612512
257,port alfred,-33.5906,26.891,68.18,84,6,3.0,ZA,1682612514
258,cururupu,-1.8283,-44.8683,85.59,63,95,3.53,BR,1682612516
259,mahanje,-9.9333,35.3333,66.83,76,92,1.66,TZ,1682612517
260,bel ombre,-4.6167,55.4167,84.04,79,40,8.05,SC,1682612518
261,namtsy,62.7161,129.6658,21.97,100,94,1.66,RU,1682612520
262,eirunepe,-6.6603,-69.8736,89.74,53,53,3.78,BR,1682612521
263,guerrero negro,27.9769,-114.0611,63.99,73,19,7.49,MX,1682612523
264,sines,37.9562,-8.8698,77.29,50,98,9.4,PT,1682612525
265,sundsvall,62.3913,17.3063,37.36,87,100,6.91,SE,1682612526
266,punta arenas,-53.15,-70.9167,46.42,61,63,21.21,CL,1682612527
267,awjilah,29.1081,21.2869,81.93,25,0,22.62,LY,1682612529
268,hithadhoo,-0.6,73.0833,84.74,73,100,9.42,MV,1682612530
269,joplin,37.0842,-94.5133,56.82,92,100,5.75,US,1682612532
270,labrador city,52.9463,-66.9114,44.51,76,100,4.61,CA,1682612533
271,esmeraldas,-19.7625,-44.3139,82.71,49,27,7.11,BR,1682612534
272,chiredzi,-21.05,31.6667,75.34,50,0,6.49,ZW,1682612536
273,mount isa,-20.7333,139.5,60.57,77,85,0.0,AU,1682612538
274,sept-iles,50.2001,-66.3821,40.05,92,100,5.75,CA,1682612539
275,ordynskoye,54.3656,81.8994,58.55,50,100,10.22,RU,1682612488
276,prince rupert,54.3161,-130.3201,44.69,75,100,18.41,CA,1682612385
277,saint augustine beach,29.8505,-81.2654,84.15,73,0,14.97,US,1682612543
278,kapuskasing,49.4169,-82.4331,41.09,65,100,8.05,CA,1682612544
279,yreka,41.7354,-122.6345,67.48,50,0,0.0,US,1682612545
280,narvik,68.4384,17.4272,43.81,83,98,6.8,NO,1682612548
281,isafjordur,66.0755,-23.124,33.84,51,75,14.97,IS,1682612549
282,zeya,53.75,127.2667,31.05,80,2,3.24,RU,1682612550
283,al abyar,32.19,20.5965,63.21,47,0,18.14,LY,1682612551
284,gadzhiyevo,69.2551,33.3362,34.56,87,41,16.04,RU,1682612553
285,skovorodino,53.9833,123.9167,22.21,95,14,2.82,RU,1682612554
286,mana,5.6592,-53.7767,79.38,82,100,4.79,GF,1682612555
287,salalah,17.0151,54.0924,86.09,79,20,9.22,OM,1682612556
288,erenhot,43.6475,111.9767,43.86,23,42,17.52,CN,1682612558
289,cherepovets,59.1333,37.9,57.02,54,20,4.47,RU,1682612559
290,karratha,-20.7377,116.8463,81.36,49,100,5.23,AU,1682612560
291,kasungu,-13.0333,33.4833,63.07,78,7,5.79,MW,1682612561
292,touros,-5.1989,-35.4608,79.52,85,97,7.47,BR,1682612563
293,bubaque,11.2833,-15.8333,78.94,70,52,14.99,GW,1682612564
294,meulaboh,4.1363,96.1285,75.97,93,100,4.38,ID,1682612565
295,amga,60.8953,131.9608,23.36,99,100,2.19,RU,1682612567
296,bodaybo,57.8506,114.1933,32.7,98,100,2.77,RU,1682612568
297,utrik,11.2278,169.8474,79.79,83,54,17.92,MH,1682612569
298,makokou,0.5738,12.8642,77.99,87,97,2.95,GA,1682612570
299,minab,27.1467,57.0801,80.92,50,4,2.3,IR,1682612572
300,belaya kholunitsa,58.84,50.8528,51.31,91,99,3.78,RU,1682612573
301,le port,-20.9373,55.2919,75.2,90,17,4.14,RE,1682612574
302,usogorsk,63.4106,48.6872,31.46,89,17,6.69,RU,1682612575
303,remire-montjoly,4.9167,-52.2667,80.64,83,75,4.61,GF,1682612577
304,tweed heads,-28.1817,153.547,64.96,94,100,3.44,AU,1682612280
305,kobayashi,31.9833,130.9833,51.3,74,45,1.83,JP,1682612579
306,montepuez,-13.1256,38.9997,68.79,80,9,4.12,MZ,1682612580
307,piacabucu,-10.4056,-36.4344,84.04,67,42,8.1,BR,1682612582
308,khorinsk,52.1657,109.7726,32.68,75,100,4.63,RU,1682612583
309,pont rouge,48.8833,-72.0825,50.11,65,72,5.12,CA,1682612584
310,daru,-9.0763,143.2092,78.55,88,100,12.46,PG,1682612587
311,susuman,62.7833,148.1667,8.74,99,100,3.58,RU,1682612588
312,smithers,54.7804,-127.1743,37.72,65,75,4.61,CA,1682612589
313,pickering,43.9001,-79.1329,51.64,49,0,8.05,CA,1682612551
314,kone,-21.0595,164.8658,69.67,91,11,4.79,NC,1682612592
315,sao vicente,-23.9631,-46.3919,84.38,61,75,7.0,BR,1682612595
316,rabo de peixe,37.8,-25.5833,65.71,82,20,14.97,PT,1682612596
317,arno,60.1167,18.6333,39.78,63,99,8.43,SE,1682612597
318,kolondieba,11.0882,-6.8926,104.7,9,38,4.9,ML,1682612598
319,freetown,8.484,-13.2299,84.27,59,7,9.46,SL,1682612599
320,st. paul,44.9444,-93.0933,62.29,54,75,8.05,US,1682612416
321,pyinmana,19.7333,96.2167,85.44,29,0,5.17,MM,1682612602
322,xanxere,-26.8769,-52.4042,68.11,57,59,4.05,BR,1682612603
323,saint-hippolyte,42.7833,2.9667,78.39,60,0,8.05,FR,1682612604
324,sittwe,20.15,92.9,83.21,74,26,6.91,MM,1682612606
325,berezovyy,51.6667,135.7,30.24,91,96,3.22,RU,1682612607
326,banda aceh,5.5577,95.3222,81.37,80,99,6.22,ID,1682612608
327,aykhal,66.0,111.5,11.26,97,37,3.8,RU,1682612609
328,balykshi,47.0667,51.8667,64.4,72,0,11.18,KZ,1682612610
329,yuci,37.6803,112.7319,49.75,81,20,4.47,CN,1682612612
330,tual,-5.6667,132.75,83.03,77,96,8.84,ID,1682612613
331,fuling,29.7022,107.3919,66.0,81,86,2.75,CN,1682612614
332,weno,7.4515,151.8468,75.15,100,100,9.22,FM,1682612615
333,limbazi,57.5129,24.7194,48.04,41,49,6.13,LV,1682612617
334,pisco,-13.7,-76.2167,75.25,78,7,6.91,PE,1682612618
335,letlhakane,-21.4167,25.5833,81.19,27,13,2.24,BW,1682612619
336,rakops,-21.0167,24.3333,84.02,26,3,7.58,BW,1682612621
337,tyumentsevo,53.3224,81.498,59.97,46,100,9.82,RU,1682612622
338,mossel bay,-34.1831,22.146,64.33,77,27,13.35,ZA,1682612624
339,vernon,50.2581,-119.2691,54.93,29,70,2.3,CA,1682612412
340,inhambane,-23.865,35.3833,76.98,83,20,11.5,MZ,1682612509
341,inyonga,-6.7167,32.0667,69.48,79,82,3.15,TZ,1682612629
342,mar del plata,-38.0023,-57.5575,73.83,68,20,6.91,AR,1682612630
343,kindu,-2.95,25.95,76.95,85,96,2.84,CD,1682612631
344,zharkent,44.1628,80.0,66.43,21,5,7.38,KZ,1682612634
345,mount gambier,-37.8333,140.7667,57.97,89,41,10.74,AU,1682612635
346,dengzhou,37.8086,120.7508,53.42,67,54,15.37,CN,1682612636
347,katabu,-4.9333,122.5167,75.45,94,99,2.06,ID,1682612637
348,bayanaul,50.7889,75.6956,61.11,39,78,4.32,KZ,1682612639
349,bourgoin-jallieu,45.5833,5.2833,72.39,60,100,1.97,FR,1682612640
350,camapua,-19.5314,-54.0439,81.97,64,8,5.82,BR,1682612641
351,lerwick,60.1545,-1.1494,44.6,56,65,12.82,GB,1682612642
352,ostashkov,57.1467,33.1075,50.9,91,100,7.49,RU,1682612644
353,yabelo,4.8833,38.0833,62.44,82,51,4.79,ET,1682612645
354,yemel'yanovo,56.1681,92.6767,45.41,76,40,11.18,RU,1682612646
355,san juan nepomuceno,9.9516,-75.082,91.18,48,100,7.83,CO,1682612649
356,callaway,30.153,-85.5699,73.33,91,100,11.5,US,1682612651
357,tannum sands,-23.9504,151.3693,67.89,73,40,6.91,AU,1682612652
358,northam,51.0333,-4.2167,56.25,90,100,15.46,GB,1682612653
359,rudbar,30.15,62.6,87.69,13,12,6.93,AF,1682612654
360,dalai,45.5,124.3,55.54,71,100,5.95,CN,1682612655
361,sheridan,44.8333,-106.9173,54.3,65,100,8.01,US,1682612657
362,bawshar,23.5556,58.3989,85.37,54,0,5.75,OM,1682612658
363,leiyang,26.4024,112.8591,69.94,87,90,4.36,CN,1682612659
364,ebaye,8.7748,167.7392,78.82,89,0,10.36,MH,1682612661
365,kharan,28.5833,65.4167,82.47,23,69,12.62,PK,1682612662
366,magadan,59.5667,150.8,27.54,78,4,8.95,RU,1682612663
367,nuuk,64.1835,-51.7216,38.01,81,20,13.8,GL,1682612664
368,coquimbo,-29.9533,-71.3436,58.73,82,100,8.05,CL,1682612651
369,mubi,10.2676,13.2644,100.13,14,96,2.89,NG,1682612668
370,kununurra,-15.7667,128.7333,75.18,88,43,0.0,AU,1682612669
371,bintulu,3.1667,113.0333,79.21,94,20,0.0,MY,1682612671
372,makarov,48.6333,142.8,34.47,71,2,6.31,RU,1682612672
373,as sulayyil,20.4607,45.5779,89.85,18,11,4.83,SA,1682612673
374,dul'durga,50.6761,113.5931,36.19,48,100,7.4,RU,1682612674
375,oodweyne,9.4092,45.064,77.76,60,99,14.97,SO,1682612676
376,chonchi,-42.6128,-73.8092,51.12,92,100,2.42,CL,1682612677
377,uliastay,47.7417,96.8444,25.11,51,33,1.88,MN,1682612678
378,mumford,5.2618,-0.759,83.64,77,100,17.63,GH,1682612680
379,pitogo,13.7847,122.0881,77.52,85,0,7.02,PH,1682612681
380,nuku'alofa,-21.1333,-175.2,77.34,94,75,13.8,TO,1682612682
381,yigo village,13.5361,144.8886,79.92,82,75,19.57,GU,1682612683
382,st. john's,47.5649,-52.7093,43.68,82,100,15.99,CA,1682612551
383,newman,37.3138,-121.0208,73.24,54,25,1.99,US,1682612686
384,dolores,-36.3132,-57.6792,71.01,38,40,4.7,AR,1682612467
385,pak chong,14.708,101.4161,80.82,67,53,3.29,TH,1682612688
386,iron river,46.0927,-88.6423,52.56,92,100,9.53,US,1682612690
387,bordj ghdir,35.9011,4.8981,79.72,14,8,7.85,DZ,1682612691
388,prineville,44.2999,-120.8345,64.62,53,0,0.0,US,1682612589
389,hailey,43.5196,-114.3153,52.9,53,0,4.61,US,1682612693
390,al hasakah,36.5024,40.7477,75.85,26,76,9.01,SY,1682612695
391,nova vicosa,-17.8919,-39.3719,84.49,62,1,7.81,BR,1682612696
392,mocajuba,-2.5842,-49.5072,75.06,97,100,1.61,BR,1682612697
393,villamontes,-21.25,-63.5,74.64,73,100,0.0,BO,1682612698
394,arkhangel'sk,64.5401,40.5433,42.91,49,0,8.95,RU,1682612700
395,kansk,56.2017,95.7175,38.39,97,100,5.91,RU,1682612701
396,tianjin,39.1422,117.1767,58.95,94,100,13.42,CN,1682612550
397,barra de santo antonio,-9.4047,-35.5072,79.88,74,26,8.16,BR,1682612703
398,bouna,9.2667,-3.0,94.95,35,100,4.79,CI,1682612705
399,mangrol,21.1167,70.1167,79.92,81,27,9.33,IN,1682612706
400,port lincoln,-34.7333,135.8667,61.45,80,76,21.05,AU,1682612707
401,saraburi,14.6084,100.9682,88.12,64,43,5.19,TH,1682612708
402,alofi,-19.0595,-169.9187,75.09,88,100,8.05,NU,1682612710
403,batie,9.8833,-2.9167,92.84,35,88,2.68,BF,1682612711
404,piti village,13.4626,144.6933,81.48,83,20,11.5,GU,1682612712
405,san pedro pochutla,15.7333,-96.4667,87.71,46,59,7.52,MX,1682612713
406,conception bay south,47.4999,-52.9981,43.45,79,8,16.26,CA,1682612716
407,cockburn town,21.4612,-71.1419,78.31,74,89,5.55,TC,1682612455
408,esil,51.9556,66.4042,65.97,34,91,7.92,KZ,1682612719
409,pechora,65.1472,57.2244,27.88,88,98,15.28,RU,1682612720
410,edson,53.5835,-116.4356,46.54,36,0,13.8,CA,1682612721
411,fort st. john,56.2499,-120.8529,42.69,49,75,17.27,CA,1682612679
412,nefteyugansk,61.0998,72.6035,39.54,100,100,5.32,RU,1682612724
413,yarmouth,41.7057,-70.2286,55.96,74,75,9.22,US,1682612725
414,tongshan,34.1805,117.1571,59.0,82,0,5.66,CN,1682612726
415,petoskey,45.3733,-84.9553,50.31,62,100,4.61,US,1682612455
416,sangmelima,2.9333,11.9833,74.34,91,99,2.75,CM,1682612729
417,flying fish cove,-10.4217,105.6791,80.44,84,69,16.17,CX,1682612730
418,ban mai,7.2041,100.5451,78.89,78,100,9.04,TH,1682612731
419,sitka,57.0531,-135.33,40.89,81,100,13.8,US,1682612732
420,arua,3.0201,30.9111,69.89,82,73,5.48,UG,1682612705
421,daltonganj,24.0333,84.0667,82.36,31,27,4.5,IN,1682612735
422,nola,40.922,14.5329,68.41,62,76,6.51,IT,1682612736
423,chui,-33.6971,-53.4616,75.16,50,0,8.93,UY,1682612738
424,ventnor,50.5948,-1.2037,52.45,94,100,14.0,GB,1682612739
425,pahrump,36.2083,-115.9839,75.31,19,11,1.01,US,1682612740
426,lazaro cardenas,17.9583,-102.2,82.83,55,66,3.91,MX,1682612741
427,webster city,42.4694,-93.816,64.81,34,0,19.57,US,1682612742
428,majene,-3.5403,118.9707,78.42,89,100,3.33,ID,1682612744
429,caleta de carquin,-11.0925,-77.6267,77.54,74,65,8.57,PE,1682612745
430,kingaroy,-26.5333,151.8333,56.68,97,38,4.45,AU,1682612747
431,tindouf,27.6711,-8.1474,104.45,6,20,4.61,DZ,1682612748
432,lionel town,17.8101,-77.2406,86.32,54,44,10.45,JM,1682612749
433,castillos,-34.1667,-53.8333,73.65,56,0,8.7,UY,1682612750
434,macapa,0.0389,-51.0664,84.18,79,75,6.91,BR,1682612752
435,eyl,7.9803,49.8164,85.03,73,42,10.63,SO,1682612753
436,usinsk,65.9939,57.5281,25.48,87,57,18.52,RU,1682612754
437,buala,-8.145,159.5921,79.75,81,8,1.66,SB,1682612756
438,saint-pierre,-21.3393,55.4781,74.88,73,0,6.91,RE,1682612757
439,acarau,-2.8856,-40.12,77.32,85,100,7.61,BR,1682612610
440,aragarcas,-15.8975,-52.2508,90.25,55,40,0.81,BR,1682612759
441,banjar,-8.19,114.9675,77.92,91,88,2.08,ID,1682612761
442,aginskoye,51.1,114.53,40.35,38,100,11.92,RU,1682612762
443,nema,57.5067,50.5011,52.7,87,70,5.7,RU,1682612763
444,chu,43.5983,73.7614,62.67,27,0,8.72,KZ,1682612765
445,nieuw amsterdam,5.8833,-55.0833,87.82,66,40,5.75,SR,1682612766
446,kaindy,42.8247,73.6759,60.42,43,8,5.53,KG,1682612769
447,gamba,-2.65,10.0,82.2,74,96,8.52,GA,1682612770
448,fale old settlement,-9.3852,-171.2468,82.99,74,100,10.22,TK,1682612771
449,langarud,37.197,50.1535,66.25,91,1,4.9,IR,1682612772
450,sao gabriel,-30.3364,-54.32,75.4,50,10,6.08,BR,1682612774
451,arraial do cabo,-22.9661,-42.0278,82.36,74,0,11.5,BR,1682612775
452,houma,29.5958,-90.7195,69.8,94,100,12.66,US,1682612532
453,paita,-5.0892,-81.1144,81.1,69,52,8.34,PE,1682612778
454,tacuarembo,-31.7333,-55.9833,76.24,43,3,3.96,UY,1682612666
455,owando,-0.4819,15.8999,80.04,76,96,2.24,CG,1682612781
456,la sarre,48.8002,-79.1996,40.77,69,97,9.48,CA,1682612783
457,khandyga,62.6667,135.6,19.18,98,34,0.47,RU,1682612784
458,ugoofaaru,5.6667,73.0,84.38,75,21,6.53,MV,1682612785
459,recani,31.2846,-4.2688,95.79,7,84,8.52,MA,1682612789
460,polyarnyy,69.1989,33.4478,35.02,86,37,16.26,RU,1682612790
461,bahir dar,11.5936,37.3908,68.65,68,82,1.79,ET,1682612791
462,olyokminsk,60.3736,120.4264,26.28,93,46,1.63,RU,1682612792
463,anna regina,7.2644,-58.5077,80.22,82,99,5.28,GY,1682612794
464,yemva,62.59,50.8594,33.19,72,42,10.27,RU,1682612613
465,eisenstadt,47.8457,16.5233,59.94,33,89,2.19,AT,1682612796
466,boundiali,9.5217,-6.4869,102.31,17,43,3.44,CI,1682612797
467,hafar al-batin,28.4328,45.9708,86.58,28,0,4.61,SA,1682612799
468,kismayo,-0.3582,42.5454,81.84,77,99,15.08,SO,1682612800
469,saynshand,44.8824,110.1163,40.3,18,53,16.24,MN,1682612803
470,egilsstadir,65.2653,-14.3948,30.11,64,75,13.8,IS,1682612804
471,puttalam,8.0362,79.8283,83.12,78,100,4.68,LK,1682612805
472,pandan,14.0453,124.1694,79.66,84,11,8.25,PH,1682612807
473,plastun,44.7561,136.2939,43.83,64,60,4.25,RU,1682612808
474,aljustrel,37.8776,-8.1652,94.87,15,89,16.84,PT,1682612809
475,fort-shevchenko,44.5086,50.263,63.45,64,2,8.99,KZ,1682612810
476,mooloolaba,-26.6833,153.1167,66.31,95,83,1.01,AU,1682612812
477,villa luvianos,18.9167,-100.4,81.32,14,53,5.01,MX,1682612813
478,arzgir,45.3728,44.2206,64.69,66,59,15.73,RU,1682612814
479,east london,-33.0153,27.9116,70.74,73,0,12.66,ZA,1682612815
480,kambar,27.5868,68.001,87.91,25,81,8.08,PK,1682612816
481,shillong,25.5689,91.8831,63.99,59,92,2.73,IN,1682612818
482,schiffdorf,53.5333,8.65,54.14,70,95,7.47,DE,1682612819
483,neryungri,56.6709,124.6491,13.06,91,19,3.24,RU,1682612820
484,taishan,22.2514,112.7799,71.76,90,98,2.64,CN,1682612821
485,pirallahi,40.4723,50.333,60.94,79,3,12.33,AZ,1682612823
486,ciudad acuna,29.3232,-100.9522,73.31,39,0,14.97,MX,1682612824
487,tvoroyri,61.5556,-6.8111,37.87,95,100,17.67,FO,1682612825
488,karoi,-16.8099,29.6925,68.11,48,54,5.91,ZW,1682612826
489,saint-denis,48.9167,2.3333,65.23,62,100,10.36,FR,1682612828
490,tezu,27.9167,96.1667,75.61,47,87,4.74,IN,1682612829
491,hotan,37.0997,79.9269,61.34,39,99,5.91,CN,1682612830
492,kavaratti,10.5669,72.642,83.75,67,37,4.21,IN,1682612832
493,las vegas,36.175,-115.1372,78.82,18,0,3.44,US,1682612579
494,revda,56.801,59.9303,56.43,64,85,9.44,RU,1682612834
495,shimoda,34.6667,138.95,57.11,71,100,7.14,JP,1682612838
496,ndende,-2.4008,11.3581,84.2,71,98,1.72,GA,1682612839
497,portland,45.5234,-122.6762,61.56,72,75,4.61,US,1682612648
498,dubbo,-32.25,148.6167,55.53,71,0,12.66,AU,1682612842
499,beaufort,5.3473,115.7455,76.55,95,97,2.93,MY,1682612691
500,nouadhibou,20.931,-17.0347,71.58,68,0,20.71,MR,1682612844
501,aban,56.67,96.06,35.2,99,100,4.07,RU,1682612845
502,iquique,-20.2208,-70.1431,73.44,65,0,9.24,CL,1682612846
503,bayanhongor,46.7167,100.1167,21.33,46,5,5.61,MN,1682612848
504,biryusinsk,55.9634,97.8235,34.92,99,100,4.88,RU,1682612849
505,chadron,42.8294,-102.9999,60.96,44,40,4.61,US,1682612850
506,margate,51.3813,1.3862,55.9,68,93,3.0,GB,1682612589
507,aigues-mortes,43.5698,4.1871,69.03,72,0,9.22,FR,1682612853
508,xilin hot,43.9667,116.0333,44.06,17,89,2.35,CN,1682612854
509,tayshet,55.9342,98.0044,34.65,99,100,4.85,RU,1682612855
510,fujin,47.26,132.0322,46.87,45,99,1.74,CN,1682612856
511,wynyard,-41.0,145.7167,58.98,99,72,5.59,AU,1682612858
512,nguigmi,14.2495,13.1092,97.03,13,89,6.29,NE,1682612859
513,antsiranana,-12.2787,49.2917,79.38,79,45,15.14,MG,1682612860
514,burhanpur,21.3,76.2333,85.35,46,89,2.91,IN,1682612862
515,at taj,24.2049,23.2857,91.45,9,0,13.78,LY,1682612863
516,bardai,11.65,7.2333,92.77,25,85,7.16,NG,1682612864
517,san fernando de apure,7.8878,-67.4724,93.07,45,22,5.19,VE,1682612865
518,kidal,18.4411,1.4078,101.64,4,0,9.26,ML,1682612867
519,gillette,44.2911,-105.5022,52.03,56,75,24.16,US,1682612868
520,abepura,-2.6333,140.5833,77.81,83,20,3.44,ID,1682612869
521,arrifes,37.7667,-25.7,64.65,82,20,14.97,PT,1682612870
522,bereeda,11.8704,51.0579,86.49,67,48,7.63,SO,1682612872
523,brookings,44.3114,-96.7984,62.94,39,40,17.27,US,1682612873
524,greymouth,-42.4667,171.2,48.02,91,10,5.75,NZ,1682612874
525,kudahuvadhoo,2.6708,72.8944,84.51,73,98,5.77,MV,1682612875
526,puerto san jose,13.9256,-90.8244,87.42,58,63,3.4,GT,1682612876
527,mahibadhoo,3.7833,72.9667,83.95,75,100,6.69,MV,1682612878
528,dryden,49.7833,-92.7503,37.69,93,100,5.75,CA,1682612879
529,fomboni,-12.28,43.7425,81.52,79,98,13.4,KM,1682612880
530,bikenibeu village,1.3673,173.1241,82.36,74,20,10.36,KI,1682612882
531,al kharijah,25.4514,30.5464,88.92,13,0,12.5,EG,1682612883
532,port-gentil,-0.7193,8.7815,85.96,74,20,6.91,GA,1682612885
533,mejit,10.2753,170.8646,80.38,82,96,15.84,MH,1682612886
534,port macquarie,-31.4333,152.9167,59.9,92,51,5.41,AU,1682612611
535,villa gesell,-37.2639,-56.973,65.05,63,35,5.88,AR,1682612888
536,tabuk,17.4189,121.4443,76.03,87,66,1.7,PH,1682612889
537,sarupathar,26.1984,93.8094,77.38,49,55,1.16,IN,1682612635
538,porbandar,21.6422,69.6093,80.67,76,25,10.78,IN,1682612892
539,cumaral,4.2708,-73.4867,80.85,76,69,3.58,CO,1682612893
540,beyla,8.6833,-8.6333,95.25,23,50,2.73,GN,1682612894
541,myitkyina,25.3833,97.4,78.21,38,35,2.89,MM,1682612622
542,ust'-uda,54.1742,103.0304,25.02,94,80,1.81,RU,1682612897
543,pangkalanbuun,-2.6833,111.6167,75.52,97,99,0.65,ID,1682612898
544,hasaki,35.7333,140.8333,57.22,67,94,16.37,JP,1682612899
545,san fernando,15.0286,120.6898,80.33,72,5,3.6,PH,1682612901
546,tateyama,34.9833,139.8667,63.81,70,100,17.27,JP,1682612902
547,douz,33.4663,9.0203,92.59,13,0,1.86,TN,1682612903
548,merowe,18.4833,31.8167,97.95,8,93,14.76,SD,1682612904
549,skole,49.0372,23.5135,45.37,56,96,5.46,UA,1682612907
550,luba,3.4568,8.5547,82.29,83,100,5.32,GQ,1682612908
551,harstad,68.799,16.5293,43.81,97,99,7.0,NO,1682612910
552,la peca,-5.6111,-78.435,74.3,76,100,2.42,PE,1682612911
553,znamenskoye,57.1281,73.8282,61.9,49,100,8.7,RU,1682612912
554,vila franca do campo,37.7167,-25.4333,66.61,76,100,14.76,PT,1682612914
555,kavieng,-2.5744,150.7967,81.88,80,14,6.85,PG,1682612915
556,hirara,24.8,125.2833,71.87,88,75,5.75,JP,1682612916
557,chabahar,25.2919,60.643,80.87,71,2,6.08,IR,1682612917
558,idri,27.5,13.2667,94.46,7,0,10.11,LY,1682612919
559,krasnoarmeysk,51.0239,45.6969,61.27,46,92,4.18,RU,1682612920
560,nagqu,31.5,92.0,32.74,72,89,8.99,CN,1682612921
561,vorkuta,67.5,64.0,20.52,89,67,15.37,RU,1682612922
562,kangding,30.0513,101.9603,48.31,97,97,4.76,CN,1682612924
563,okhotsk,59.3833,143.3,26.28,91,91,9.6,RU,1682612925
564,mariestad,58.7097,13.8237,46.38,71,72,9.8,SE,1682612926
565,keren,15.7778,38.4581,79.72,42,49,5.82,ER,1682612927
